<?xml version='1.0' encoding='utf-8'?>
<kml xmlns="http://www.opengis.net/kml/2.2" xmlns:gx="http://www.google.com/kml/ext/2.2" xmlns:kml="http://www.opengis.net/kml/2.2" xmlns:atom="http://www.w3.org/2005/Atom"><Document><name>geopoints-2021.txt</name><Folder><name>Points</name><Placemark><name>Matevž Dolenc | Ljubljana, Slovenia
</name><Point><coordinates>14.5068602,46.0499803,0</coordinates></Point></Placemark><Placemark><name>Fernanda Benezra | Porto Alegre, Brazil
</name><Point><coordinates>-51.23,-30.033056,0</coordinates></Point></Placemark><Placemark><name>Sebastian Arias | Bogotá, Colombia
</name><Point><coordinates>-74.1214952,4.699111,0</coordinates></Point></Placemark><Placemark><name>Aws Abdulfattah | Baghdad, Iraq
</name><Point><coordinates>43.6847595,33.2209265,0</coordinates></Point></Placemark><Placemark><name>sarra hadji | Ariana, Tunisia
</name><Point><coordinates>10.19337,36.86012,0</coordinates></Point></Placemark><Placemark><name>Artur Kuzminykh | Saint Petersburg, Russia
</name><Point><coordinates>30.345726,60.08187,0</coordinates></Point></Placemark><Placemark><name>Gabriela Pineda | Guayaquil, Ecuador
</name><Point><coordinates>-79.88621,-2.19616,0</coordinates></Point></Placemark><Placemark><name>Dhanjit Singer | Thimphu, Bhutan
</name><Point><coordinates>89.64191,27.46609,0</coordinates></Point></Placemark><Placemark><name>Haris Rafiq | Islamabad, Pakistan
</name><Point><coordinates>73.0479,33.6844,0</coordinates></Point></Placemark><Placemark><name>Daniel Osuala | Oyo, Nigeria
</name><Point><coordinates>3.9347,7.8372,0</coordinates></Point></Placemark><Placemark><name>Frank Chuquin | Lima, Perú
</name><Point><coordinates>-77.042793,-12.046374,0</coordinates></Point></Placemark><Placemark><name>Adegun Ibironke | Lagos, Nigeria
</name><Point><coordinates>3.39467,6.45407,0</coordinates></Point></Placemark><Placemark><name>Mohannad Mira | Giza, Egypt
</name><Point><coordinates>13.2356,52.302,0</coordinates></Point></Placemark><Placemark><name>Rita Nogueira | Vila Real, Portugal
</name><Point><coordinates>-7.74413,41.30062,0</coordinates></Point></Placemark><Placemark><name>Mauricio Morales | San José, Costa Rica
</name><Point><coordinates>-84.121922,9.952995,0</coordinates></Point></Placemark><Placemark><name>Verónica Andrade | Quito, Ecuador
</name><Point><coordinates>-78.467834,-0.180653,0</coordinates></Point></Placemark><Placemark><name>Juan Montenegro | Milan, Italy
</name><Point><coordinates>9.18854,45.464664,0</coordinates></Point></Placemark><Placemark><name>Angelica Bigazzi  | Livorno, Italy
</name><Point><coordinates>10.310567,43.548473,0</coordinates></Point></Placemark><Placemark><name>Victoria Ikede | Lagos, Nigeria
</name><Point><coordinates>3.3941795,6.4550575,0</coordinates></Point></Placemark><Placemark><name>Mariana Ataide | Brasília, Brazil
</name><Point><coordinates>-47.903064,-15.78742,0</coordinates></Point></Placemark><Placemark><name>Iuri Rodrigues | Lisbon, Portugal
</name><Point><coordinates>-9.3969,38.7224,0</coordinates></Point></Placemark><Placemark><name>Giancarlo de Marco | Bari, Italy
</name><Point><coordinates>16.871871,41.117143,0</coordinates></Point></Placemark><Placemark><name>Muhammad Irfan Ghani | Budapest , Hungary
</name><Point><coordinates>19.04045,47.49835,0</coordinates></Point></Placemark><Placemark><name>Shiva Kamizi | Eindhoven , Netherlands
</name><Point><coordinates>5.4697225,51.4381 5.4752,0</coordinates></Point></Placemark><Placemark><name>Tshewang Dorji | Thimphu, Bhutan
</name><Point><coordinates>89.6336729,27.4713546,0</coordinates></Point></Placemark><Placemark><name>Azinwie Zama Ambe | Douala, Cameroon
</name><Point><coordinates>9.786072,4.061536,0</coordinates></Point></Placemark><Placemark><name>Julio Salaberri | Granada, Spain
</name><Point><coordinates>-3.60667,37.18817,0</coordinates></Point></Placemark><Placemark><name>Mahla Kiaie | Gorgan, Iran
</name><Point><coordinates>54.4393,36.8456,0</coordinates></Point></Placemark><Placemark><name>Michiel Bienens | Lichtaart, Belgium
</name><Point><coordinates>4.905588,51.205553,0</coordinates></Point></Placemark></Folder></Document></kml>